{"data": "{"class":"TPV","device":"/dev/ttyUSB0","status":2,"mode":3,"time":"2024-02-27T10:52:00.000Z","ept":0.005,"lat":49.226960000,"lon":-122.943650000,"alt":120.000,"epx":2.165,"epy":2.537,"epv":11.500,"track":328.7100,"speed":0.041,"climb":0.100,"eps":5.07,"epc":23.00}
{"class":"TPV","device":"/dev/ttyUSB0","status":2,"mode":3,"time":"2024-02-27T10:52:01.000Z","ept":0.005,"lat":49.226960000,"lon":-122.943648333,"alt":120.200,"epx":2.165,"epy":2.537,"epv":11.500,"track":328.2500,"speed":0.046,"climb":0.200,"eps":5.07,"epc":23.00}
{"class":"TPV","device":"/dev/ttyUSB0","status":2,"mode":3,"time":"2024-02-27T10:52:02.000Z","ept":0.005,"lat":49.226960000,"lon":-122.943648333,"alt":120.300,"epx":2.165,"epy":2.537,"epv":11.500,"track":330.3300,"speed":0.046,"climb":0.100,"eps":5.07,"epc":23.00}
{"class":"TPV","device":"/dev/ttyUSB0","status":2,"mode":3,"time":"2024-02-27T10:52:03.000Z","ept":0.005,"lat":49.226960000,"lon":-122.943646667,"alt":120.400,"epx":2.165,"epy":2.537,"epv":11.500,"track":330.3700,"speed":0.046,"climb":0.100,"eps":5.07,"epc":23.00}
{"class":"TPV","device":"/dev/ttyUSB0","status":2,"mode":3,"time":"2024-02-27T10:52:04.000Z","ept":0.005,"lat":49.226960000,"lon":-122.943646667,"alt":120.500,"epx":2.165,"epy":2.537,"epv":11.500,"track":295.9800,"speed":0.031,"climb":0.100,"eps":5.07,"epc":23.00}
{"class":"TPV","device":"/dev/ttyUSB0","status":2,"mode":3,"time":"2024-02-27T10:52:05.000Z","ept":0.005,"lat":49.226960000,"lon":-122.943646667,"alt":120.600,"epx":2.165,"epy":2.537,"epv":11.500,"track":347.2800,"speed":0.021,"climb":0.100,"eps":5.07,"epc":23.00}
{"class":"TPV","device":"/dev/ttyUSB0","status":2,"mode":3,"time":"2024-02-27T10:52:06.000Z","ept":0.005,"lat":49.226958333,"lon":-122.943645000,"alt":120.700,"epx":2.165,"epy":2.537,"epv":11.500,"track":329.0600,"speed":0.031,"climb":0.100,"eps":5.07,"epc":23.00}
{"class":"TPV","device":"/dev/ttyUSB0","status":2,"mode":3,"time":"2024-02-27T10:52:07.000Z","ept":0.005,"lat":49.226958333,"lon":-122.943645000,"alt":120.800,"epx":2.165,"epy":2.537,"epv":11.500,"track":335.5000,"speed":0.021,"climb":0.100,"eps":5.07,"epc":23.00}
{"class":"TPV","device":"/dev/ttyUSB0","status":2,"mode":3,"time":"2024-02-27T10:52:08.000Z","ept":0.005,"lat":49.226958333,"lon":-122.943643333,"alt":120.900,"epx":2.165,"epy":2.537,"epv":11.500,"track":332.4100,"speed":0.026,"climb":0.100,"eps":5.07,"epc":23.00}
{"class":"TPV","device":"/dev/ttyUSB0","status":2,"mode":3,"time":"2024-02-27T10:52:09.000Z","ept":0.005,"lat":49.226958333,"lon":-122.943643333,"alt":121.000,"epx":2.165,"epy":2.537,"epv":11.500,"track":335.7600,"speed":0.021,"climb":0.100,"eps":5.07,"epc":23.00}
{"class":"TPV","device":"/dev/ttyUSB0","status":2,"mode":3,"time":"2024-02-27T10:52:10.000Z","ept":0.005,"lat":49.226958333,"lon":-122.943641667,"alt":121.100,"epx":2.165,"epy":2.537,"epv":11.500,"track":329.2400,"speed":0.021,"climb":0.100,"eps":5.07,"epc":23.00}
{"class":"TPV","device":"/dev/ttyUSB0","status":2,"mode":3,"time":"2024-02-27T10:52:11.000Z","ept":0.005,"lat":49.226956667,"lon":-122.943641667,"alt":121.200,"epx":2.165,"epy":2.537,"epv":11.500,"track":310.3200,"speed":0.036,"climb":0.100,"eps":5.07,"epc":23.00}
{"class":"TPV","device":"/dev/ttyUSB0","status":2,"mode":3,"time":"2024-02-27T10:52:12.000Z","ept":0.005,"lat":49.226956667,"lon":-122.943641667,"alt":121.300,"epx":2.165,"epy":2.537,"epv":11.500,"track":299.5000,"speed":0.036,"climb":0.100,"eps":5.07,"epc":23.00}
{"class":"TPV","device":"/dev/ttyUSB0","status":2,"mode":3,"time":"2024-02-27T10:52:13.000Z","ept":0.005,"lat":49.226956667,"lon":-122.943641667,"alt":121.300,"epx":2.165,"epy":2.537,"epv":11.500,"track":308.1300,"speed":0.093,"climb":0.000,"eps":5.07,"epc":23.00}
{"class":"TPV","device":"/dev/ttyUSB0","status":2,"mode":3,"time":"2024-02-27T10:52:14.000Z","ept":0.005,"lat":49.226956667,"lon":-122.943641667,"alt":121.400,"epx":2.165,"epy":2.537,"epv":11.500,"track":306.5700,"speed":0.051,"climb":0.100,"eps":5.07,"epc":23.00}
{"class":"TPV","device":"/dev/ttyUSB0","status":2,"mode":3,"time":"2024-02-27T10:52:15.000Z","ept":0.005,"lat":49.226956667,"lon":-122.943641667,"alt":121.500,"epx":2.165,"epy":2.537,"epv":11.500,"track":308.4700,"speed":0.103,"climb":0.100,"eps":5.07,"epc":23.00}
{"class":"TPV","device":"/dev/ttyUSB0","status":2,"mode":3,"time":"2024-02-27T10:52:16.000Z","ept":0.005,"lat":49.226956667,"lon":-122.943641667,"alt":121.500,"epx":2.165,"epy":2.537,"epv":11.500,"track":303.2000,"speed":0.046,"climb":0.000,"eps":5.07,"epc":23.00}
{"class":"TPV","device":"/dev/ttyUSB0","status":2,"mode":3,"time":"2024-02-27T10:52:17.000Z","ept":0.005,"lat":49.226956667,"lon":-122.943643333,"alt":121.500,"epx":2.165,"epy":2.537,"epv":11.500,"track":318.3000,"speed":0.067,"climb":0.000,"eps":5.07,"epc":23.00}
{"class":"TPV","device":"/dev/ttyUSB0","status":2,"mode":3,"time":"2024-02-27T10:52:18.000Z","ept":0.005,"lat":49.226956667,"lon":-122.943643333,"alt":121.500,"epx":2.165,"epy":2.537,"epv":11.500,"track":317.1500,"speed":0.051,"climb":0.000,"eps":5.07,"epc":23.00}
{"class":"TPV","device":"/dev/ttyUSB0","status":2,"mode":3,"time":"2024-02-27T10:52:19.000Z","ept":0.005,"lat":49.226958333,"lon":-122.943643333,"alt":121.400,"epx":2.165,"epy":2.537,"epv":11.500,"track":314.8900,"speed":0.067,"climb":-0.100,"eps":5.07,"epc":23.00}
{"class":"TPV","device":"/dev/ttyUSB0","status":2,"mode":3,"time":"2024-02-27T10:52:20.000Z","ept":0.005,"lat":49.226958333,"lon":-122.943645000,"alt":121.400,"epx":2.165,"epy":2.537,"epv":11.500,"track":325.9300,"speed":0.031,"climb":0.000,"eps":5.07,"epc":23.00}
{"class":"TPV","device":"/dev/ttyUSB0","status":2,"mode":3,"time":"2024-02-27T10:52:21.000Z","ept":0.005,"lat":49.226958333,"lon":-122.943645000,"alt":121.300,"epx":2.165,"epy":2.537,"epv":11.500,"track":315.7900,"speed":0.093,"climb":-0.100,"eps":5.07,"epc":23.00}
{"class":"TPV","device":"/dev/ttyUSB0","status":2,"mode":3,"time":"2024-02-27T10:52:22.000Z","ept":0.005,"lat":49.226958333,"lon":-122.943645000,"alt":121.300,"epx":2.165,"epy":2.537,"epv":11.500,"track":315.1500,"speed":0.087,"climb":0.000,"eps":5.07,"epc":23.00}
{"class":"TPV","device":"/dev/ttyUSB0","status":2,"mode":3,"time":"2024-02-27T10:52:23.000Z","ept":0.005,"lat":49.226958333,"lon":-122.943646667,"alt":121.200,"epx":2.165,"epy":2.537,"epv":11.500,"track":317.3100,"speed":0.082,"climb":-0.100,"eps":5.07,"epc":23.00}
{"class":"TPV","device":"/dev/ttyUSB0","status":2,"mode":3,"time":"2024-02-27T10:52:24.000Z","ept":0.005,"lat":49.226958333,"lon":-122.943646667,"alt":121.200,"epx":2.165,"epy":2.537,"epv":11.500,"track":344.6400,"speed":0.015,"climb":0.000,"eps":5.07,"epc":23.00}
{"class":"TPV","device":"/dev/ttyUSB0","status":2,"mode":3,"time":"2024-02-27T10:52:25.000Z","ept":0.005,"lat":49.226958333,"lon":-122.943646667,"alt":121.200,"epx":2.165,"epy":2.537,"epv":11.500,"track":316.1800,"speed":0.077,"climb":0.000,"eps":5.07,"epc":23.00}
{"class":"TPV","device":"/dev/ttyUSB0","status":2,"mode":3,"time":"2024-02-27T10:52:26.000Z","ept":0.005,"lat":49.226960000,"lon":-122.943648333,"alt":121.200,"epx":2.165,"epy":2.537,"epv":11.500,"track":317.5100,"speed":0.062,"climb":0.000,"eps":5.07,"epc":23.00}
{"class":"TPV","device":"/dev/ttyUSB0","status":2,"mode":3,"time":"2024-02-27T10:52:27.000Z","ept":0.005,"lat":49.226960000,"lon":-122.943648333,"alt":121.100,"epx":2.165,"epy":2.537,"epv":11.500,"track":317.0300,"speed":0.072,"climb":-0.100,"eps":5.07,"epc":23.00}
{"class":"TPV","device":"/dev/ttyUSB0","status":2,"mode":3,"time":"2024-02-27T10:52:28.000Z","ept":0.005,"lat":49.226960000,"lon":-122.943648333,"alt":121.100,"epx":2.165,"epy":2.537,"epv":11.500,"track":315.9100,"speed":0.051,"climb":0.000,"eps":5.07,"epc":23.00}
{"class":"TPV","device":"/dev/ttyUSB0","status":2,"mode":3,"time":"2024-02-27T10:52:29.000Z","ept":0.005,"lat":49.226960000,"lon":-122.943650000,"alt":121.100,"epx":2.165,"epy":2.537,"epv":11.500,"track":335.7600,"speed":0.010,"climb":0.000,"eps":5.07,"epc":23.00}
{"class":"TPV","device":"/dev/ttyUSB0","status":2,"mode":3,"time":"2024-02-27T10:52:30.000Z","ept":0.005,"lat":49.226960000,"lon":-122.943648333,"alt":120.900,"epx":2.165,"epy":2.537,"epv":11.500,"track":134.2500,"speed":0.015,"climb":-0.200,"eps":5.07,"epc":23.00}
{"class":"TPV","device":"/dev/ttyUSB0","status":2,"mode":3,"time":"2024-02-27T10:52:31.000Z","ept":0.005,"lat":49.226958333,"lon":-122.943648333,"alt":120.700,"epx":2.165,"epy":2.537,"epv":6.900,"track":326.9400,"speed":0.005,"climb":-0.200,"eps":5.07,"epc":18.40}
{"class":"TPV","device":"/dev/ttyUSB0","status":2,"mode":3,"time":"2024-02-27T10:52:32.000Z","ept":0.005,"lat":49.226958333,"lon":-122.943646667,"alt":120.500,"epx":2.165,"epy":2.537,"epv":6.900,"track":312.8500,"speed":0.021,"climb":-0.200,"eps":5.07,"epc":13.80}
{"class":"TPV","device":"/dev/ttyUSB0","status":2,"mode":3,"time":"2024-02-27T10:52:33.000Z","ept":0.005,"lat":49.226958333,"lon":-122.943646667,"alt":120.300,"epx":2.165,"epy":2.537,"epv":6.900,"track":306.7400,"speed":0.031,"climb":-0.200,"eps":5.07,"epc":13.80}
{"class":"TPV","device":"/dev/ttyUSB0","status":2,"mode":3,"time":"2024-02-27T10:52:34.000Z","ept":0.005,"lat":49.226958333,"lon":-122.943646667,"alt":120.200,"epx":1.760,"epy":2.266,"epv":6.900,"track":120.0400,"speed":0.026,"climb":-0.100,"eps":4.80,"epc":13.80}
{"class":"TPV","device":"/dev/ttyUSB0","status":2,"mode":3,"time":"2024-02-27T10:52:35.000Z","ept":0.005,"lat":49.226958333,"lon":-122.943646667,"alt":120.000,"epx":1.760,"epy":2.266,"epv":6.900,"track":319.5100,"speed":0.026,"climb":-0.200,"eps":4.53,"epc":13.80}
{"class":"TPV","device":"/dev/ttyUSB0","status":2,"mode":3,"time":"2024-02-27T10:52:36.000Z","ept":0.005,"lat":49.226956667,"lon":-122.943646667,"alt":120.000,"epx":1.760,"epy":2.266,"epv":6.900,"track":90.4700,"speed":0.010,"climb":0.000,"eps":4.53,"epc":13.80}
{"class":"TPV","device":"/dev/ttyUSB0","status":2,"mode":3,"time":"2024-02-27T10:52:37.000Z","ept":0.005,"lat":49.226956667,"lon":-122.943645000,"alt":119.800,"epx":1.760,"epy":2.266,"epv":6.900,"track":313.2300,"speed":0.041,"climb":-0.200,"eps":4.53,"epc":13.80}
{"class":"TPV","device":"/dev/ttyUSB0","status":2,"mode":3,"time":"2024-02-27T10:52:38.000Z","ept":0.005,"lat":49.226956667,"lon":-122.943645000,"alt":119.700,"epx":1.760,"epy":2.266,"epv":6.900,"track":356.3900,"speed":0.036,"climb":-0.100,"eps":4.53,"epc":13.80}
{"class":"TPV","device":"/dev/ttyUSB0","status":2,"mode":3,"time":"2024-02-27T10:52:39.000Z","ept":0.005,"lat":49.226958333,"lon":-122.943645000,"alt":119.600,"epx":4.452,"epy":7.545,"epv":16.100,"track":16.2900,"speed":0.026,"climb":-0.100,"eps":9.81,"epc":23.00}
{"class":"TPV","device":"/dev/ttyUSB0","status":2,"mode":3,"time":"2024-02-27T10:52:40.000Z","ept":0.005,"lat":49.226958333,"lon":-122.943645000,"alt":119.500,"epx":4.452,"epy":7.545,"epv":16.100,"track":3.3900,"speed":0.031,"climb":-0.100,"eps":15.09,"epc":32.20}
{"class":"TPV","device":"/dev/ttyUSB0","status":2,"mode":3,"time":"2024-02-27T10:52:41.000Z","ept":0.005,"lat":49.226958333,"lon":-122.943645000,"alt":119.500,"epx":4.452,"epy":7.545,"epv":16.100,"track":30.8000,"speed":0.026,"climb":0.000,"eps":15.09,"epc":32.20}
{"class":"TPV","device":"/dev/ttyUSB0","status":2,"mode":3,"time":"2024-02-27T10:52:42.000Z","ept":0.005,"lat":49.226958333,"lon":-122.943645000,"alt":119.400,"epx":4.452,"epy":7.545,"epv":16.100,"track":39.0900,"speed":0.021,"climb":-0.100,"eps":15.09,"epc":32.20}
{"class":"TPV","device":"/dev/ttyUSB0","status":2,"mode":3,"time":"2024-02-27T10:52:43.000Z","ept":0.005,"lat":49.226958333,"lon":-122.943643333,"alt":119.300,"epx":4.452,"epy":7.545,"epv":16.100,"track":57.1800,"speed":0.021,"climb":-0.100,"eps":15.09,"epc":32.20}
{"class":"TPV","device":"/dev/ttyUSB0","status":2,"mode":3,"time":"2024-02-27T10:52:44.000Z","ept":0.005,"lat":49.226958333,"lon":-122.943643333,"alt":119.300,"epx":4.452,"epy":7.545,"epv":16.100,"track":66.0500,"speed":0.015,"climb":0.000,"eps":15.09,"epc":32.20}
{"class":"TPV","device":"/dev/ttyUSB0","status":2,"mode":3,"time":"2024-02-27T10:52:45.000Z","ept":0.005,"lat":49.226958333,"lon":-122.943643333,"alt":119.200,"epx":4.452,"epy":7.545,"epv":16.100,"track":63.7200,"speed":0.015,"climb":-0.100,"eps":15.09,"epc":32.20}
{"class":"TPV","device":"/dev/ttyUSB0","status":2,"mode":3,"time":"2024-02-27T10:52:46.000Z","ept":0.005,"lat":49.226956667,"lon":-122.943641667,"alt":119.300,"epx":4.452,"epy":7.545,"epv":16.100,"track":124.9900,"speed":0.036,"climb":0.100,"eps":15.09,"epc":32.20}
{"class":"TPV","device":"/dev/ttyUSB0","status":2,"mode":3,"time":"2024-02-27T10:52:47.000Z","ept":0.005,"lat":49.226958333,"lon":-122.943643333,"alt":119.100,"epx":4.452,"epy":7.545,"epv":6.900,"track":303.1400,"speed":0.031,"climb":-0.200,"eps":15.09,"epc":23.00}
{"class":"TPV","device":"/dev/ttyUSB0","status":2,"mode":3,"time":"2024-02-27T10:52:48.000Z","ept":0.005,"lat":49.226958333,"lon":-122.943643333,"alt":118.900,"epx":4.452,"epy":7.545,"epv":6.900,"track":308.2100,"speed":0.041,"climb":-0.200,"eps":15.09,"epc":13.80}
{"class":"TPV","device":"/dev/ttyUSB0","status":2,"mode":3,"time":"2024-02-27T10:52:49.000Z","ept":0.005,"lat":49.226958333,"lon":-122.943643333,"alt":118.800,"epx":1.760,"epy":2.266,"epv":6.900,"track":302.6800,"speed":0.036,"climb":-0.100,"eps":9.81,"epc":13.80}
{"class":"TPV","device":"/dev/ttyUSB0","status":2,"mode":3,"time":"2024-02-27T10:52:50.000Z","ept":0.005,"lat":49.226958333,"lon":-122.943645000,"alt":118.600,"epx":1.760,"epy":2.266,"epv":6.900,"track":306.8100,"speed":0.046,"climb":-0.200,"eps":4.53,"epc":13.80}
{"class":"TPV","device":"/dev/ttyUSB0","status":2,"mode":3,"time":"2024-02-27T10:52:51.000Z","ept":0.005,"lat":49.226958333,"lon":-122.943645000,"alt":118.500,"epx":1.760,"epy":2.266,"epv":6.900,"track":310.5700,"speed":0.031,"climb":-0.100,"eps":4.53,"epc":13.80}
{"class":"TPV","device":"/dev/ttyUSB0","status":2,"mode":3,"time":"2024-02-27T10:52:52.000Z","ept":0.005,"lat":49.226958333,"lon":-122.943645000,"alt":118.300,"epx":1.760,"epy":2.266,"epv":6.900,"track":307.5300,"speed":0.051,"climb":-0.200,"eps":4.53,"epc":13.80}
{"class":"TPV","device":"/dev/ttyUSB0","status":2,"mode":3,"time":"2024-02-27T10:52:53.000Z","ept":0.005,"lat":49.226958333,"lon":-122.943646667,"alt":118.200,"epx":1.760,"epy":2.266,"epv":6.900,"track":307.5200,"speed":0.051,"climb":-0.100,"eps":4.53,"epc":13.80}
{"class":"TPV","device":"/dev/ttyUSB0","status":2,"mode":3,"time":"2024-02-27T10:52:54.000Z","ept":0.005,"lat":49.226958333,"lon":-122.943646667,"alt":118.100,"epx":1.760,"epy":2.266,"epv":6.900,"track":304.7400,"speed":0.046,"climb":-0.100,"eps":4.53,"epc":13.80}
{"class":"TPV","device":"/dev/ttyUSB0","status":2,"mode":3,"time":"2024-02-27T10:52:55.000Z","ept":0.005,"lat":49.226958333,"lon":-122.943646667,"alt":118.000,"epx":1.760,"epy":2.266,"epv":6.900,"track":304.9600,"speed":0.005,"climb":-0.100,"eps":4.53,"epc":13.80}
{"class":"TPV","device":"/dev/ttyUSB0","status":2,"mode":3,"time":"2024-02-27T10:52:56.000Z","ept":0.005,"lat":49.226958333,"lon":-122.943646667,"alt":118.000,"epx":1.760,"epy":2.266,"epv":6.900,"track":347.2100,"speed":0.010,"climb":0.000,"eps":4.53,"epc":13.80}
{"class":"TPV","device":"/dev/ttyUSB0","status":2,"mode":3,"time":"2024-02-27T10:52:57.000Z","ept":0.005,"lat":49.226958333,"lon":-122.943645000,"alt":118.000,"epx":1.760,"epy":2.266,"epv":6.900,"track":306.1000,"speed":0.031,"climb":0.000,"eps":4.53,"epc":13.80}
{"class":"TPV","device":"/dev/ttyUSB0","status":2,"mode":3,"time":"2024-02-27T10:52:58.000Z","ept":0.005,"lat":49.226956667,"lon":-122.943645000,"alt":117.900,"epx":1.760,"epy":2.266,"epv":6.900,"track":94.4400,"speed":0.005,"climb":-0.100,"eps":4.53,"epc":13.80}
{"class":"TPV","device":"/dev/ttyUSB0","status":2,"mode":3,"time":"2024-02-27T10:52:59.000Z","ept":0.005,"lat":49.226956667,"lon":-122.943645000,"alt":117.900,"epx":1.760,"epy":2.266,"epv":6.900,"track":319.7100,"speed":0.015,"climb":0.000,"eps":4.53,"epc":13.80}
{"class":"TPV","device":"/dev/ttyUSB0","status":2,"mode":3,"time":"2024-02-27T10:53:00.000Z","ept":0.005,"lat":49.226956667,"lon":-122.943645000,"alt":118.000,"epx":1.760,"epy":2.266,"epv":6.900,"track":109.6600,"speed":0.015,"climb":0.100,"eps":4.53,"epc":13.80}
{"class":"TPV","device":"/dev/ttyUSB0","status":2,"mode":3,"time":"2024-02-27T10:53:01.000Z","ept":0.005,"lat":49.226956667,"lon":-122.943643333,"alt":118.000,"epx":1.760,"epy":2.266,"epv":6.900,"track":291.6200,"speed":0.015,"climb":0.000,"eps":4.53,"epc":13.80}
{"class":"TPV","device":"/dev/ttyUSB0","status":2,"mode":3,"time":"2024-02-27T10:53:02.000Z","ept":0.005,"lat":49.226956667,"lon":-122.943643333,"alt":117.900,"epx":1.760,"epy":2.266,"epv":6.900,"track":119.4000,"speed":0.026,"climb":-0.100,"eps":4.53,"epc":13.80}
{"class":"TPV","device":"/dev/ttyUSB0","status":2,"mode":3,"time":"2024-02-27T10:53:03.000Z","ept":0.005,"lat":49.226955000,"lon":-122.943643333,"alt":117.900,"epx":1.760,"epy":2.266,"epv":6.900,"track":280.4400,"speed":0.046,"climb":0.000,"eps":4.53,"epc":13.80}
"}